{ "type": "FeatureCollection", "features": [
{ "type":"Feature", "geometry": { "type":"LineString", "coordinates": [[-77.0000000, -12.0000000], [-74.0000000, 4.5666700], [-78.5833000, -0.2500000], [-66.9167000, 10.5000000], [-82.3667000, 23.1333000], [-79.4167000, 9.0000000], [-84.0333000, 9.9166700], [-90.3667000, 14.6667000], [-87.2333000, 14.0833000], [-89.1667000, 13.6667000], [-86.3333000, 12.1000000]] }, "properties": { "stroke": "#FF0000", "stroke-width": 4 } },{ "type":"Feature", "geometry": { "type":"Point", "coordinates": [-77.0000000, -12.0000000] }, "properties": { "marker-color":"#00FF00", "title":"start", "name":"Lima" } },{ "type":"Feature", "geometry": { "type":"Point", "coordinates": [-74.0000000, 4.5666700] }, "properties": { "marker-color":"#FFA500", "title":"city", "name":"Bogota" } },{ "type":"Feature", "geometry": { "type":"Point", "coordinates": [-78.5833000, -0.2500000] }, "properties": { "marker-color":"#FFA500", "title":"city", "name":"Quito" } },{ "type":"Feature", "geometry": { "type":"Point", "coordinates": [-66.9167000, 10.5000000] }, "properties": { "marker-color":"#FFA500", "title":"city", "name":"Caracas" } },{ "type":"Feature", "geometry": { "type":"Point", "coordinates": [-82.3667000, 23.1333000] }, "properties": { "marker-color":"#FFA500", "title":"city", "name":"Havana" } },{ "type":"Feature", "geometry": { "type":"Point", "coordinates": [-79.4167000, 9.0000000] }, "properties": { "marker-color":"#FFA500", "title":"city", "name":"Panama" } },{ "type":"Feature", "geometry": { "type":"Point", "coordinates": [-84.0333000, 9.9166700] }, "properties": { "marker-color":"#FFA500", "title":"city", "name":"San Jose" } },{ "type":"Feature", "geometry": { "type":"Point", "coordinates": [-90.3667000, 14.6667000] }, "properties": { "marker-color":"#FFA500", "title":"city", "name":"Guatemala" } },{ "type":"Feature", "geometry": { "type":"Point", "coordinates": [-87.2333000, 14.0833000] }, "properties": { "marker-color":"#FFA500", "title":"city", "name":"Tegucigalpa" } },{ "type":"Feature", "geometry": { "type":"Point", "coordinates": [-89.1667000, 13.6667000] }, "properties": { "marker-color":"#FFA500", "title":"city", "name":"San Salvador" } },{ "type":"Feature", "geometry": { "type":"Point", "coordinates": [-86.3333000, 12.1000000] }, "properties": { "marker-color":"#0000FF", "title":"target", "name":"Managua" } }] }
